{
"type": "FeatureCollection",
"name": "air_pollution",
"crs": { "type": "name", "properties": { "name": "urn:ogc:def:crs:OGC:1.3:CRS84" } },
"features": [
{ "type": "Feature", "properties": { "location": "บริเวณหน้าสำนักงานเขตพระโขนง", "id_air": "004", "dcode": "1009", "dname": "สถานีตรวจวัดคุณภาพฯ เขตพระโขนง" }, "geometry": { "type": "Point", "coordinates": [ 100.602379352750603, 13.702577781405397 ] } },
{ "type": "Feature", "properties": { "location": "บริเวณหน้าสำนักงานเขตราษฎร์บูรณะ", "id_air": "005", "dcode": "1024", "dname": "สถานีตรวจวัดคุณภาพฯ เขตราษฎรบูรณะ" }, "geometry": { "type": "Point", "coordinates": [ 100.505455543644629, 13.681889270931046 ] } },
{ "type": "Feature", "properties": { "location": "ภายในสำนักงานเขตราชเทวี ถนนพญาไท", "id_air": "006", "dcode": "1037", "dname": "สถานีตรวจวัดคุณภาพฯ เขตราชเทวี" }, "geometry": { "type": "Point", "coordinates": [ 100.534399608137434, 13.758784582209612 ] } },
{ "type": "Feature", "properties": { "location": "บริเวณสวนป่า ถนนวิภาวดี เขตดินแดง", "id_air": "001", "dcode": "1026", "dname": "สถานีตรวจวัดคุณภาพฯ เขตดินแดง" }, "geometry": { "type": "Point", "coordinates": [ 100.552276384429675, 13.770953554812539 ] } },
{ "type": "Feature", "properties": { "location": "ภายในสำนักงานเขตพระนคร", "id_air": "047", "dcode": "1001", "dname": "สถานีตรวจวัดคุณภาพฯ เขตพระนคร" }, "geometry": { "type": "Point", "coordinates": [ 100.498674246736726, 13.764960834343993 ] } },
{ "type": "Feature", "properties": { "location": "ภายในสำนักงานเขตห้วยขวาง (ด้านข้างโรงเพาะชำ) ถนนประชาอุทิศ", "id_air": "048", "dcode": "1017", "dname": "สถานีตรวจวัดคุณภาพฯ เขตห้วยขวาง" }, "geometry": { "type": "Point", "coordinates": [ 100.579279810496473, 13.776632968764671 ] } },
{ "type": "Feature", "properties": { "location": "บริเวณสวนหย่อมตรงข้ามสำนักงานเขตดุสิต", "id_air": "007", "dcode": "1002", "dname": "สถานีตรวจวัดคุณภาพฯ เขตดุสิต" }, "geometry": { "type": "Point", "coordinates": [ 100.520337470870487, 13.777185606518858 ] } },
{ "type": "Feature", "properties": { "location": "ด้านหน้าสำนักงานคณะกรรมการพัฒนาเศรษฐกิจและสังคมแห่งชาติ", "id_air": "008", "dcode": "1008", "dname": "สถานีตรวจวัดคุณภาพฯ เขตป้อมปราบศัตรูพ่าย" }, "geometry": { "type": "Point", "coordinates": [ 100.514962126774762, 13.757741872296302 ] } },
{ "type": "Feature", "properties": { "location": "บริเวณหน้าหัวมุม ซุ้มประตูเฉลิมพระเกียรติ (วงเวียนโอเดียน)", "id_air": "009", "dcode": "1013", "dname": "สถานีตรวจวัดคุณภาพฯ เขตสัมพันธวงศ์" }, "geometry": { "type": "Point", "coordinates": [ 100.513789373770763, 13.729999521255028 ] } },
{ "type": "Feature", "properties": { "location": "หน้าแฟลตทหารบกใกล้โรงพยาบาลวิชัยยุทธ ตรงข้ามกระทรวงการคลัง", "id_air": "010", "dcode": "1014", "dname": "สถานีตรวจวัดคุณภาพฯ เขตพญาไท" }, "geometry": { "type": "Point", "coordinates": [ 100.533581818987329, 13.78191092432302 ] } },
{ "type": "Feature", "properties": { "location": "ด้านหน้าปั๊มน้ำมัน เอสโซ่ ซ.ลาดพร้าว 95", "id_air": "009", "dcode": "1045", "dname": "สถานีตรวจวัดคุณภาพฯ เขตวังทองหลาง" }, "geometry": { "type": "Point", "coordinates": [ 100.623236109974187, 13.778703465466956 ] } },
{ "type": "Feature", "properties": { "location": "ภายในสำนักงานเขตคลองเตย", "id_air": "049", "dcode": "1033", "dname": "สถานีตรวจวัดคุณภาพฯ เขตคลองเตย" }, "geometry": { "type": "Point", "coordinates": [ 100.583706279912192, 13.708124221167944 ] } },
{ "type": "Feature", "properties": { "location": "หน้าห้างสามย่านมิตรทาวน์ ถนนพระราม 4", "id_air": "015", "dcode": "1007", "dname": "สถานีตรวจวัดคุณภาพฯ เขตปทุมวัน" }, "geometry": { "type": "Point", "coordinates": [ 100.530603108397074, 13.732412947865738 ] } },
{ "type": "Feature", "properties": { "location": "สี่แยกหน้าสำนักงานเขตสาทร ซอย ถนนเซนต์หลุยส์", "id_air": "018", "dcode": "1028", "dname": "สถานีตรวจวัดคุณภาพฯ เขตสาทร" }, "geometry": { "type": "Point", "coordinates": [ 100.526644157372033, 13.707871158726016 ] } },
{ "type": "Feature", "properties": { "location": "บริเวณข้างป้อมตำรวจหน้าลานบางรักเลิฟลี่", "id_air": "017", "dcode": "1004", "dname": "สถานีตรวจวัดคุณภาพฯ เขตบางรัก" }, "geometry": { "type": "Point", "coordinates": [ 100.523287784616301, 13.729862966621285 ] } },
{ "type": "Feature", "properties": { "location": "ภายในสำนักงานเขตบางคอแหลม เครื่องตรวจวัด PM2.5 แบบเคลื่อนที่(3)", "id_air": "082", "dcode": "1031", "dname": "สถานีตรวจวัดคุณภาพฯ เขตบางคอแหลม" }, "geometry": { "type": "Point", "coordinates": [ 100.50232265875394, 13.693019262905183 ] } },
{ "type": "Feature", "properties": { "location": "ใกล้ธนาคารกรุงศรีอยุธยา สำนักงานใหญ่", "id_air": "019", "dcode": "1012", "dname": "สถานีตรวจวัดคุณภาพฯ เขตยานนาวา" }, "geometry": { "type": "Point", "coordinates": [ 100.546472920884923, 13.677299934197528 ] } },
{ "type": "Feature", "properties": { "location": "ตรงข้าม noble Reveal (ข้าง MK gold restaurants)", "id_air": "021", "dcode": "1039", "dname": "สถานีตรวจวัดคุณภาพฯ เขตวัฒนา" }, "geometry": { "type": "Point", "coordinates": [ 100.584532530721688, 13.721920734014784 ] } },
{ "type": "Feature", "properties": { "location": "ด้านหน้าสำนักงานเขตสวนหลวง", "id_air": "022", "dcode": "1034", "dname": "สถานีตรวจวัดคุณภาพฯ เขตสวนหลวง" }, "geometry": { "type": "Point", "coordinates": [ 100.651602202669991, 13.730918852529639 ] } },
{ "type": "Feature", "properties": { "location": "บริเวณหน้าห้างสรรพสินค้าบิ๊กซี บางนา", "id_air": "023", "dcode": "1047", "dname": "สถานีตรวจวัดคุณภาพฯ เขตบางนา" }, "geometry": { "type": "Point", "coordinates": [ 100.635601219206421, 13.668019606996037 ] } },
{ "type": "Feature", "properties": { "location": "บริเวณด้านหน้ามหาวิทยาลัยเกษตรศาสตร์", "id_air": "025", "dcode": "1030", "dname": "สถานีตรวจวัดคุณภาพฯ เขตจตุจักร" }, "geometry": { "type": "Point", "coordinates": [ 100.568916485376832, 13.844147765698978 ] } },
{ "type": "Feature", "properties": { "location": "ภายในสำนักงานเขตบางซื่อ", "id_air": "050", "dcode": "1029", "dname": "สถานีตรวจวัดคุณภาพฯ เขตบางซือ" }, "geometry": { "type": "Point", "coordinates": [ 100.537599897081932, 13.809749824305442 ] } },
{ "type": "Feature", "properties": { "location": "ภายในสำนักงานเขตลาดพร้าว", "id_air": "051", "dcode": "1038", "dname": "สถานีตรวจวัดคุณภาพฯ เขตลาดพร้าว" }, "geometry": { "type": "Point", "coordinates": [ 100.607420156257874, 13.803503366313281 ] } },
{ "type": "Feature", "properties": { "location": "บริเวณภายในสำนักงานเขตหลักสี่", "id_air": "052", "dcode": "1041", "dname": "สถานีตรวจวัดคุณภาพฯ เขตหลักสี่" }, "geometry": { "type": "Point", "coordinates": [ 100.579203942992748, 13.887404928686713 ] } },
{ "type": "Feature", "properties": { "location": "บริเวณภายในสำนักงานเขตบางเขน", "id_air": "053", "dcode": "1005", "dname": "สถานีตรวจวัดคุณภาพฯ เขตบางเขน" }, "geometry": { "type": "Point", "coordinates": [ 100.596123781244117, 13.873783172354928 ] } },
{ "type": "Feature", "properties": { "location": "ด้านข้างสำนักงานเขตดอนเมือง", "id_air": "026", "dcode": "1036", "dname": "สถานีตรวจวัดคุณภาพฯ เขตดอนเมือง" }, "geometry": { "type": "Point", "coordinates": [ 100.594947510414187, 13.910234829959071 ] } },
{ "type": "Feature", "properties": { "location": "ป้ายรถเมล์ด้านหน้าสำนักงานเขตสายไหม", "id_air": "027", "dcode": "1042", "dname": "สถานีตรวจวัดคุณภาพฯ เขตสายไหม" }, "geometry": { "type": "Point", "coordinates": [ 100.66002529416653, 13.894725861457463 ] } },
{ "type": "Feature", "properties": { "location": "ข้าง ป้อมตำรวจตรงข้ามสำนักงาน เขตบางกะปิ", "id_air": "028", "dcode": "1006", "dname": "สถานีตรวจวัดคุณภาพฯ เขตบางกะปิ" }, "geometry": { "type": "Point", "coordinates": [ 100.647724535909475, 13.766529983784844 ] } },
{ "type": "Feature", "properties": { "location": "บริเวณปากทางถนนสวนสยามตัดกับถนนรามอินทรา", "id_air": "029", "dcode": "1043", "dname": "สถานีตรวจวัดคุณภาพฯ เขตคันนายาว" }, "geometry": { "type": "Point", "coordinates": [ 100.686427633449355, 13.814086783002505 ] } },
{ "type": "Feature", "properties": { "location": "ด้านหน้าโรงพยาบาลลาดกระบังข้างป้อมตำรวจ", "id_air": "031", "dcode": "1011", "dname": "สถานีตรวจวัดคุณภาพฯ เขตลาดกระบัง" }, "geometry": { "type": "Point", "coordinates": [ 100.784269871442234, 13.722080549349194 ] } },
{ "type": "Feature", "properties": { "location": "สวนเฉลิมพระเกียรติ ร.9 ตรงข้ามสำนักงานเขตมีนบุรี", "id_air": "032", "dcode": "1010", "dname": "สถานีตรวจวัดคุณภาพฯ เขตมีนบุรี" }, "geometry": { "type": "Point", "coordinates": [ 100.732163596456942, 13.813269530782629 ] } },
{ "type": "Feature", "properties": { "location": "ถนนเชื่อมสัมพันธ์ หน้าสำนักงานเขตหนองจอก", "id_air": "033", "dcode": "1003", "dname": "สถานีตรวจวัดคุณภาพฯ เขตหนองจอก" }, "geometry": { "type": "Point", "coordinates": [ 100.862819344839508, 13.856021970053469 ] } },
{ "type": "Feature", "properties": { "location": "ภายในสำนักงานเขตสะพานสูง", "id_air": "054", "dcode": "1044", "dname": "สถานีตรวจวัดคุณภาพฯ เขตสะพานสูง" }, "geometry": { "type": "Point", "coordinates": [ 100.685566922435285, 13.769975383505615 ] } },
{ "type": "Feature", "properties": { "location": "ภายในสำนักงานเขตบึงกุ่ม", "id_air": "055", "dcode": "1027", "dname": "สถานีตรวจวัดคุณภาพฯ เขตบึงกุ่ม" }, "geometry": { "type": "Point", "coordinates": [ 100.669451558095957, 13.785421220752184 ] } },
{ "type": "Feature", "properties": { "location": "บริเวณภายในสำนักงานเขตคลองสามวา", "id_air": "056", "dcode": "1046", "dname": "สถานีตรวจวัดคุณภาพฯ เขตคลองสามวา" }, "geometry": { "type": "Point", "coordinates": [ 100.704152022665681, 13.859580165758894 ] } },
{ "type": "Feature", "properties": { "location": "ด้านหน้าห้างสรรพสินค้าซีคอน สแควร์", "id_air": "034", "dcode": "1032", "dname": "สถานีตรวจวัดคุณภาพฯ เขตประเวศ" }, "geometry": { "type": "Point", "coordinates": [ 100.647647357366182, 13.695075305325235 ] } },
{ "type": "Feature", "properties": { "location": "บริเวณภายในสำนักงานเขตจอมทอง", "id_air": "057", "dcode": "1035", "dname": "สถานีตรวจวัดคุณภาพฯ เขตจอมทอง" }, "geometry": { "type": "Point", "coordinates": [ 100.484127893540418, 13.677351683279513 ] } },
{ "type": "Feature", "properties": { "location": "บริเวณภายในสำนักงานเขตบางพลัด", "id_air": "058", "dcode": "1035", "dname": "สถานีตรวจวัดคุณภาพฯ เขตบางพลัด" }, "geometry": { "type": "Point", "coordinates": [ 100.504646851440341, 13.793978697377868 ] } },
{ "type": "Feature", "properties": { "location": "ริมป้ายรถเมล์บริเวณแยกมไหศวรรย์", "id_air": "035", "dcode": "1015", "dname": "สถานีตรวจวัดคุณภาพฯ เขตธนบุรี" }, "geometry": { "type": "Point", "coordinates": [ 100.485050888782482, 13.704641032679703 ] } },
{ "type": "Feature", "properties": { "location": "บริเวณหน้าห้องสมุดใต้สะพานสมเด็จพระเจ้าตากสิน", "id_air": "038", "dcode": "1018", "dname": "สถานีตรวจวัดคุณภาพฯ เขตคลองสาน" }, "geometry": { "type": "Point", "coordinates": [ 100.508799187654162, 13.719717035941965 ] } },
{ "type": "Feature", "properties": { "location": "บริเวณสี่แยกท่าพระ แขวงวัดท่าพระ", "id_air": "039", "dcode": "1016", "dname": "สถานีตรวจวัดคุณภาพฯ เขตบางกอกใหญ่" }, "geometry": { "type": "Point", "coordinates": [ 100.473823622114935, 13.728900070724377 ] } },
{ "type": "Feature", "properties": { "location": "บริเวณหน้าสถานีตำรวจรถไฟบางกอกน้อย", "id_air": "040", "dcode": "1020", "dname": "สถานีตรวจวัดคุณภาพฯ เขตบางกอกน้อย" }, "geometry": { "type": "Point", "coordinates": [ 100.480679830556085, 13.759659168120068 ] } },
{ "type": "Feature", "properties": { "location": "ถนนพุทธมณฑลสาย 1 ตัดกับถนนบรมราชชนนี", "id_air": "041", "dcode": "1019", "dname": "สถานีตรวจวัดคุณภาพฯ เขตตลิ่งชัน" }, "geometry": { "type": "Point", "coordinates": [ 100.426148334251096, 13.781910290666909 ] } },
{ "type": "Feature", "properties": { "location": "ทางเข้าสนามหลวง 2", "id_air": "042", "dcode": "1048", "dname": "สถานีตรวจวัดคุณภาพฯ เขตทวีวัฒนา" }, "geometry": { "type": "Point", "coordinates": [ 100.354837790740703, 13.746019458406018 ] } },
{ "type": "Feature", "properties": { "location": "ภายในสำนักงานเขตบางแค", "id_air": "059", "dcode": "1040", "dname": "สถานีตรวจวัดคุณภาพฯ เขตบางแค" }, "geometry": { "type": "Point", "coordinates": [ 100.409321845090815, 13.695668447084012 ] } },
{ "type": "Feature", "properties": { "location": "ถนนพระราม 2 ภายในสำนักงานเขตบางขุนเทียน", "id_air": "045", "dcode": "1021", "dname": "สถานีตรวจวัดคุณภาพฯ เขตบางขุนเทียน" }, "geometry": { "type": "Point", "coordinates": [ 100.435317091615531, 13.660894095515054 ] } },
{ "type": "Feature", "properties": { "location": "ถนนเพชรเกษมหน้ามหาวิทยาลัยสยาม", "id_air": "043", "dcode": "1022", "dname": "สถานีตรวจวัดคุณภาพฯ เขตภาษีเจริญ" }, "geometry": { "type": "Point", "coordinates": [ 100.455185043789101, 13.719540648816489 ] } },
{ "type": "Feature", "properties": { "location": "สามแยกข้างป้อมตำรวจ ถนนมาเจริญ เพชรเกษม 81", "id_air": "044", "dcode": "1023", "dname": "สถานีตรวจวัดคุณภาพฯ ขตหนองแขม" }, "geometry": { "type": "Point", "coordinates": [ 100.343216047942008, 13.705295577996024 ] } },
{ "type": "Feature", "properties": { "location": "ถนนประชาอุทิศ หน้ามหาวิทยาลัยเทคโนโลยี พระจอมเกล้าธนบุรี", "id_air": "048", "dcode": "1049", "dname": "สถานีตรวจวัดคุณภาพฯ เขตทุ่งครุ" }, "geometry": { "type": "Point", "coordinates": [ 100.493103378693931, 13.648897555205386 ] } },
{ "type": "Feature", "properties": { "location": "ใกล้ตลาดบางบอน", "id_air": "045", "dcode": "1049", "dname": "สถานีตรวจวัดคุณภาพฯ เขตบางบอน" }, "geometry": { "type": "Point", "coordinates": [ 100.373361347310805, 13.63922723271997 ] } },
{ "type": "Feature", "properties": { "location": "การเคหะชุมชนห้วยขวาง แขวงดินแดง เขตดินแดง", "id_air": "002", "dcode": "1026", "dname": "สถานีตรวจวัดคุณภาพฯ เขตดินแดง (สถานี คพ.)" }, "geometry": { "type": "Point", "coordinates": [ 100.571971727339985, 13.776796570334081 ] } },
{ "type": "Feature", "properties": { "location": "การเคหะชุมชนดินแดง แขวงดินแดง เขตดินแดง", "id_air": "003", "dcode": "1026", "dname": "สถานีตรวจวัดคุณภาพฯ เขตดินแดง (สถานี คพ.)" }, "geometry": { "type": "Point", "coordinates": [ 100.550925373481064, 13.767515997397444 ] } },
{ "type": "Feature", "properties": { "location": "โรงเรียนบดินทรเดชา (สิงห์ สิงหเสนี) แขวงพลับพลา เขตวังทองหลาง", "id_air": "013", "dcode": "1045", "dname": "สถานีตรวจวัดคุณภาพฯ เขตวังทองหลาง (สถานี คพ.)" }, "geometry": { "type": "Point", "coordinates": [ 100.614888455449588, 13.768297129759507 ] } },
{ "type": "Feature", "properties": { "location": "กรมประชาสัมพันธ์ แขวงพญาไท เขตพญาไท", "id_air": "011", "dcode": "1014", "dname": "สถานีตรวจวัดคุณภาพฯ เขตพญาไท (สถานี คพ.)" }, "geometry": { "type": "Point", "coordinates": [ 100.537635744316589, 13.780117456781628 ] } },
{ "type": "Feature", "properties": { "location": "สถานีตำรวจนครบาลโชคชัย ริมถนนลาดพร้าว เขตวังทองหลาง", "id_air": "014", "dcode": "1045", "dname": "สถานีตรวจวัดคุณภาพฯ เขตวังทองหลาง (สถานี คพ.)" }, "geometry": { "type": "Point", "coordinates": [ 100.5934045848702, 13.795276197040018 ] } },
{ "type": "Feature", "properties": { "location": "โรงพยาบาลจุฬาลงกรณ์ ริมถนนพระราม 4 เขตปทุมวัน", "id_air": "016", "dcode": "1007", "dname": "สถานีตรวจวัดคุณภาพฯ เขตปทุมวัน (สถานี คพ.)" }, "geometry": { "type": "Point", "coordinates": [ 100.534938629909632, 13.730627891353317 ] } },
{ "type": "Feature", "properties": { "location": "โรงเรียนนนทรีวิทยา แขวงช่องนนทรี เขตยานนาวา", "id_air": "020", "dcode": "1012", "dname": "สถานีตรวจวัดคุณภาพฯ เขตยานนาวา (สถานี คพ.)" }, "geometry": { "type": "Point", "coordinates": [ 100.54680703013527, 13.707110688158755 ] } },
{ "type": "Feature", "properties": { "location": "กรมอุตุนิยมวิทยาบางนา แขวงบางนา เขตบางนา", "id_air": "024", "dcode": "1047", "dname": "สถานีตรวจวัดคุณภาพฯ เขตบางนา (สถานี คพ.)" }, "geometry": { "type": "Point", "coordinates": [ 100.606356689947958, 13.667444498921355 ] } },
{ "type": "Feature", "properties": { "location": "เคหะชุมชนคลองจั่น แขวงคลองจั่น เขตบางกะปิ", "id_air": "029", "dcode": "1006", "dname": "สถานีตรวจวัดคุณภาพฯ เขตบางกะปิ (สถานี คพ.)" }, "geometry": { "type": "Point", "coordinates": [ 100.648856730079487, 13.770896878608632 ] } },
{ "type": "Feature", "properties": { "location": "มหาวิทยาลัยราชภัฏบ้านสมเด็จเจ้าพระยา แขวงหิรัญรูจี เขตธนบุรี", "id_air": "036", "dcode": "1015", "dname": "สถานีตรวจวัดคุณภาพฯ เขตธนบุรี (สถานี คพ.)" }, "geometry": { "type": "Point", "coordinates": [ 100.490203760654737, 13.732399076464695 ] } },
{ "type": "Feature", "properties": { "location": "การไฟฟ้าย่อยธนบุรี ริมถนนอินทรพิทักษ์ เขตธนบุรี", "id_air": "037", "dcode": "1015", "dname": "สถานีตรวจวัดคุณภาพฯ เขตธนบุรี (สถานี คพ.)" }, "geometry": { "type": "Point", "coordinates": [ 100.486229755609017, 13.727677417138763 ] } },
{ "type": "Feature", "properties": { "location": "ริมถนนกาญจนาภิเษก แขวงแสมดำ เขตบางขุนเทียน กรุงเทพมหานคร", "id_air": "061", "dcode": "1021", "dname": "สถานีตรวจวัดคุณภาพฯ เขตบางขุนเทียน (สถานี คพ.)" }, "geometry": { "type": "Point", "coordinates": [ 100.414637155843025, 13.635939828031598 ] } },
{ "type": "Feature", "properties": { "location": "ถนนพระราม 4 แขวงวังใหม่ เขตปทุมวัน", "id_air": "062", "dcode": "1007", "dname": "สถานีตรวจวัดคุณภาพฯ สวนลุมพินี เขตปทุมวัน" }, "geometry": { "type": "Point", "coordinates": [ 100.540647315778699, 13.728785298895605 ] } },
{ "type": "Feature", "properties": { "location": "ถนนกำแพงเพชร 3 แขวงลาดยาว เขตจตุจักร", "id_air": "063", "dcode": "1030", "dname": "สถานีตรวจวัดคุณภาพฯ สวนวชิรเบญจทัศ เขตจตุจักร" }, "geometry": { "type": "Point", "coordinates": [ 100.555069265598576, 13.811881702239614 ] } },
{ "type": "Feature", "properties": { "location": "ถนนพหลโยธิน แขวงจตุจักร เขตจตุจักร", "id_air": "064", "dcode": "1030", "dname": "สถานีตรวจวัดคุณภาพฯ สวนจตุจักร เขตจตุจักร" }, "geometry": { "type": "Point", "coordinates": [ 100.555662471031653, 13.807790774281029 ] } },
{ "type": "Feature", "properties": { "location": "ถนน เฉลิมพระเกียรติ ร. 9 เเขวง หนองบอน เขต ประเวศ", "id_air": "065", "dcode": "1032", "dname": "สถานีตรวจวัดคุณภาพฯ สวนหลวง ร.9 เขตประเวศ" }, "geometry": { "type": "Point", "coordinates": [ 100.663092512372742, 13.687241534598739 ] } },
{ "type": "Feature", "properties": { "location": "357/14 ถ. เคหะร่มเกล้า แขวงคลองสองต้นนุ่น เขตลาดกระบัง", "id_air": "066", "dcode": "1011", "dname": "สถานีตรวจวัดคุณภาพฯ สวน60พรรษาสมเด็จพระบรมราชินีฯ" }, "geometry": { "type": "Point", "coordinates": [ 100.732449525027576, 13.76325370977024 ] } },
{ "type": "Feature", "properties": { "location": "ถ. สุขุมวิท แขวงคลองตัน เขตคลองเตย", "id_air": "067", "dcode": "1033", "dname": "สถานีตรวจวัดคุณภาพฯ อุทยานเบญจสิริ เขตคลองเตย" }, "geometry": { "type": "Point", "coordinates": [ 100.567391896204228, 13.730526625000406 ] } },
{ "type": "Feature", "properties": { "location": "52/181 ถนน วัดเวฬุวนาราม เขตดอนเมือง", "id_air": "068", "dcode": "1026", "dname": "สถานีตรวจวัดคุณภาพฯ สวนรมณีย์ทุ่งสีกัน เขตดอนเมือง" }, "geometry": { "type": "Point", "coordinates": [ 100.567844197153846, 13.929155882314991 ] } },
{ "type": "Feature", "properties": { "location": "ถ.ประชาอุทิศ แขวงบางมด เขตทุ่งครุ", "id_air": "069", "dcode": "1049", "dname": "สถานีตรวจวัดคุณภาพฯ สวนธนบุรีรมย์ เขตทุ่งครุ" }, "geometry": { "type": "Point", "coordinates": [ 100.49139754969454, 13.652058491404931 ] } },
{ "type": "Feature", "properties": { "location": "ถ. รัชดาภิเษก แขวงคลองเตย เขตคลองเตย", "id_air": "070", "dcode": "1033", "dname": "สถานีตรวจวัดคุณภาพฯ สวนเบญจกิติ เขตคลองเตย" }, "geometry": { "type": "Point", "coordinates": [ 100.558060217619797, 13.728870501688272 ] } },
{ "type": "Feature", "properties": { "location": "200/1 ถ.กำแพงเพชร 2 แขวงจตุจักร เขตจตุจักร", "id_air": "071", "dcode": "1030", "dname": "สถานีตรวจวัดคุณภาพฯ สวนสมเด็จพระนางเจ้าสิริกิติ์ฯ" }, "geometry": { "type": "Point", "coordinates": [ 100.550516728788523, 13.806573143631864 ] } },
{ "type": "Feature", "properties": { "location": "ถนนบางขุนนนท์ แขวงบางขุนนนท์ เขตบางกอกน้อย", "id_air": "072", "dcode": "1020", "dname": "สถานีตรวจวัดคุณภาพฯ สวนเฉลิมพระเกียรติ 80 พรรษา" }, "geometry": { "type": "Point", "coordinates": [ 100.468820928137518, 13.772859197361036 ] } },
{ "type": "Feature", "properties": { "location": "ซ. เสรีไทย 57 แขวงคลองกุ่ม เขตบึงกุ่ม", "id_air": "073", "dcode": "1027", "dname": "สถานีตรวจวัดคุณภาพฯ สวนเสรีไทย เขตบึงกุ่ม" }, "geometry": { "type": "Point", "coordinates": [ 100.672849591954247, 13.78609676519071 ] } },
{ "type": "Feature", "properties": { "location": "ซอย บ้านคลองขวาง แขวงหลักสอง เขตบางแค", "id_air": "074", "dcode": "1040", "dname": "สถานีตรวจวัดคุณภาพฯ สวนบางแคภิรมย์ เขตบางแค" }, "geometry": { "type": "Point", "coordinates": [ 100.385347696546432, 13.681753119478374 ] } },
{ "type": "Feature", "properties": { "location": "195/1 ซอย อุทยาน 7 แขวงทวีวัฒนา เขตทวีวัฒนา", "id_air": "075", "dcode": "1048", "dname": "สถานีตรวจวัดคุณภาพฯ สวนทวีวนารมย์ เขตทวีวัฒนา" }, "geometry": { "type": "Point", "coordinates": [ 100.352632174844999, 13.744355584756338 ] } },
{ "type": "Feature", "properties": { "location": "ถนน ลาดกระบัง เเขวง ลาดกระบัง เขตลาดกระบัง", "id_air": "076", "dcode": "1011", "dname": "สถานีตรวจวัดคุณภาพฯ สวนพระนคร เขตลาดกระบัง" }, "geometry": { "type": "Point", "coordinates": [ 100.781162716345847, 13.719398554888384 ] } },
{ "type": "Feature", "properties": { "location": "21/9 ถ. เลียบวารี แขวงกระทุ่มราย เขตหนองจอก", "id_air": "077", "dcode": "1003", "dname": "สถานีตรวจวัดคุณภาพฯ สวนหนองจอก เขตหนองจอก" }, "geometry": { "type": "Point", "coordinates": [ 100.859671725335858, 13.852931898463579 ] } },
{ "type": "Feature", "properties": { "location": "141, 5 ถ. รามอินทรา แขวงอนุสาวรีย์ เขตบางเขน", "id_air": "078", "dcode": "1005", "dname": "สถานีตรวจวัดคุณภาพฯ สวนกีฬารามอินทรา เขตบางเขน" }, "geometry": { "type": "Point", "coordinates": [ 100.620237494332002, 13.878518615654945 ] } },
{ "type": "Feature", "properties": { "location": "500 ถ. พระรามที่ 3 แขวงบางโคล่ เขตบางคอแหลม", "id_air": "079", "dcode": "1031", "dname": "สถานีตรวจวัดคุณภาพฯ สวนสาธารณะเฉลิมพระเกียรติ6รอบ" }, "geometry": { "type": "Point", "coordinates": [ 100.517617542855646, 13.68565407680088 ] } },
{ "type": "Feature", "properties": { "location": "ถ. ราชวิถี แขวงถนนพญาไท เขตราชเทวี", "id_air": "080", "dcode": "1037", "dname": "สถานีตรวจวัดคุณภาพฯ สวนสันติภาพ เขตราชเทวี" }, "geometry": { "type": "Point", "coordinates": [ 100.540804039465129, 13.761744606825207 ] } },
{ "type": "Feature", "properties": { "location": "ถ. อรุณอมรินทร์ แขวงบางยี่ขัน เขตบางพลัด", "id_air": "081", "dcode": "1025", "dname": "สถานีตรวจวัดคุณภาพฯ สวนหลวงพระราม 8 เขตบางพลัด" }, "geometry": { "type": "Point", "coordinates": [ 100.495021776799049, 13.76886297124368 ] } },
{ "type": "Feature", "properties": { "location": "ภายในสำนักงานเขตบางนา (เครื่องตรวจวัด PM2.5 แบบเคลื่อนที่)", "id_air": "083", "dcode": "1047", "dname": "สถานีตรวจวัดคุณภาพฯ เขตบางนา" }, "geometry": { "type": "Point", "coordinates": [ 100.592032487012219, 13.681204943139001 ] } }
]
}
